[
  {"name":"Aaron Nors","location":"Waco","Address":"13525 Sandalwood Drive, Waco, TX 76712","phone":"254-292-2254"},
  {"name":"Adam Ledlow","location":"Waco","Address":"13525 Sandalwood Drive, Waco, TX 76712","phone":"254-772-6905"},
  {"name":"Andrew Polk","location":"Fort Worth","Address":"1612 Summit Ave, Suite 325 Fort Worth, TX 76102","phone":"817-288-1599"},
  {"name":"Barbara Golden","location":"Paris","Address":"655 Clarksville St., Paris, TX 75460","phone":"903-227-0515"},
  {"name":"Bradley Horry","location":"Stephenville","Address":"101 East Road, Stephenville, TX 76401","phone":"254-965-3612"},
  {"name":"Craig Cheyne","location":"Cleburne","Address":"210 North Ridgeway, Cleburne, TX 76033","phone":"817-980-2550 "},
  {"name":"Craig Hartman","location":"Denton","Address":"3905 Morse St, Denton, TX 76208","phone":"940-395-6069"},
  {"name":"Laramie Eppler","location":"Georgetown","Address":"4411 South Interstate 35, Suite 110, Georgetown, TX 78626","phone":"512-591-2151"},
  {"name":"Gerrett Edwards","location":"Georgetown","Address":"4411 South Interstate 35, Suite 110, Georgetown, TX 78626","phone":"512-591-2151"},
  {"name":"Gerrit Schouten","location":"Stephenville","Address":"101 East Road, Stephenville, TX 76401","phone":"254-485-4118"},
  {"name":"Hannah Gaddy","location":"Denton","Address":"3905 Morse St, Denton, TX 76208","phone":"940-566-1626"},
  {"name":"James Fuchs","location":"Sherman","Address":"3441 North, Sherman, TX 75092","phone":"903-294-9148"},
  {"name":"Jason Jones","location":"Sweetwater","Address":"400 E. Third St., Sweetwater, TX 79556","phone":"325-236-3626"},
  {"name":"Jennifer White","location":"Lampasas","Address":"413 S. Western Avenue, Lampasas, TX 76550-0908","phone":"512-556-3372"},
  {"name":"Justin Kelly","location":"Waco","Address":"13525 Sandalwood Drive, Waco, TX 76712","phone":"254-495-2537"},
  {"name":"Justin Wiethorn","location":"Waco","Address":"13525 Sandalwood Drive, Waco, TX 76712","phone":"254-715-4896"},
  {"name":"Kregg Slakey","location":"Paris","Address":"655 Clarksville St., Paris, TX 75460","phone":"903-438-6313"},
  {"name":"Kyle Felan","location":"Abilene","Address":"4449 Loop 322, Abilene, TX 79602","phone":"325-793-1810"},
  {"name":"Lindsey Ellsworth","location":"Weatherford","Address":"155 East BB Fielder Road, Suite 100 Weatherford, TX 76087","phone":"817-228-7360"},
  {"name":"Macy Blanckenship","location":"Lampasas","Address":"413 S. Western Avenue, Lampasas, TX 76550-0908","phone":"512-734-3524"},
  {"name":"Matt Lynch","location":"Corsicana","Address":"112 S. 15th Street, Corsicana , TX 75151-0917","phone":"254-230-7085 "},
  {"name":"Nathan Winstead","location":"Georgetown","Address":"4411 South Interstate 35, Suite 110, Georgetown, TX 78626","phone":"512-966-6690"},
  {"name":"Patrick Hejl","location":"Hillsboro","Address":"219 E. Franklin Street, Hillsboro, TX 76645","phone":"254-205-8444"},
  {"name":"Randy Meinke","location":"AgriBusiness","Address":"1612 Summit Ave, Suite 300 Fort Worth, TX 76102","phone":"817-288-1584"},
  {"name":"Robert Humphreys","location":"Fort Worth","Address":"1612 Summit Ave, Suite 325 Fort Worth, TX 76102","phone":"817-682-6404"},
  {"name":"Thomas Bugner","location":"Denton","Address":"3905 Morse St, Denton, TX 76208","phone":"940-368-3952"},
  {"name":"Thomas Keith","location":"Stephenville","Address":"101 East Road, Stephenville, TX 76401","phone":"254-485-9316 "},
  {"name":"Todd Reed","location":"New Boston","Address":"516 James Bowie Drive, New Boston, TX 75570","phone":"903-628-3031"},
  {"name":"Tyler Rosser","location":"Sherman","Address":"3441 North FM 1417, Sherman, TX 75092","phone":"512-733-4631"},
  {"name":"Walker Dailey","location":"Denton","Address":"3905 Morse St, Denton, TX 76208","phone":"817-229-1104"},
  {"name":"Michael Rupp","location":"Fort Worth","Address":"1612 Summit Ave, Suite 325 Fort Worth, TX 76102","phone":"817-332-6565"},
  {"name":"Seth Wharton","location":"Fort Worth","Address":"1612 Summit Ave, Suite 325 Fort Worth, TX 76102","phone":"817-332-6565"}
  ]